[{"model": "airport.city", "pk": 1, "fields": {"name": "Kyiv", "country": "Ukraine"}}, {"model": "airport.city", "pk": 2, "fields": {"name": "Tel Aviv-Yafo", "country": "Israel"}}, {"model": "airport.city", "pk": 3, "fields": {"name": "Istanbul", "country": "Turkey"}}, {"model": "airport.city", "pk": 4, "fields": {"name": "Tbilisi", "country": "Georgia"}}, {"model": "airport.airport", "pk": 1, "fields": {"code": "KBP", "name": "Boryspil International Airport", "city": 1, "latitude": 50.33881090085334, "longitude": 30.8939703153421}}, {"model": "airport.airport", "pk": 2, "fields": {"code": "IEV", "name": "Ihor Sikorsky Kyiv", "city": 1, "latitude": 50.412513889911594, "longitude": 30.443292400000004}}, {"model": "airport.airport", "pk": 3, "fields": {"code": "TLV", "name": "Ben Gurion Airport", "city": 2, "latitude": 32.00130175731526, "longitude": 34.87082407671049}}, {"model": "airport.airport", "pk": 4, "fields": {"code": "IST", "name": "Istanbul Airport", "city": 3, "latitude": 41.258291799709625, "longitude": 28.7426473306842}}, {"model": "airport.airport", "pk": 5, "fields": {"code": "TBS", "name": "Tbilisi International Airport", "city": 4, "latitude": 41.67040035682916, "longitude": 44.96422525397371}}]